[{"NAME":"Brighton and Hove","LAT":50.823607,"LONG":-0.14355342},{"NAME":"Glasgow","LAT":55.86363,"LONG":-4.236884},{"NAME":"Ripon","LAT":54.136024,"LONG":-1.5234382},{"NAME":"Lincoln","LAT":53.234841,"LONG":-0.53844035},{"NAME":"Inbhir Nis","LAT":57.479998,"LONG":-4.2262213},{"NAME":"Preston","LAT":53.760554,"LONG":-2.6985277},{"NAME":"St Davids","LAT":51.880865,"LONG":-5.264644},{"NAME":"Southampton","LAT":50.904882,"LONG":-1.4043128},{"NAME":"Exeter","LAT":50.722579,"LONG":-3.5326106},{"NAME":"Edinburgh","LAT":55.953344,"LONG":-3.1891217},{"NAME":"Lancaster","LAT":54.050069,"LONG":-2.803161},{"NAME":"Worcester","LAT":52.192923,"LONG":-2.2211025},{"NAME":"Cambridge","LAT":52.204853,"LONG":0.11967982},{"NAME":"Coventry","LAT":52.407707,"LONG":-1.506857},{"NAME":"Wells","LAT":51.208634,"LONG":-2.6471657},{"NAME":"Stoke-on-Trent","LAT":53.022184,"LONG":-2.1733692},{"NAME":"Leicester","LAT":52.633614,"LONG":-1.1334621},{"NAME":"Oxford","LAT":51.751977,"LONG":-1.2576471},{"NAME":"City of London","LAT":51.514372,"LONG":-0.092286518},{"NAME":"London","LAT":51.507407,"LONG":-0.12772404},{"NAME":"Nottingham","LAT":52.956196,"LONG":-1.1512038},{"NAME":"Bristol","LAT":51.453134,"LONG":-2.6009817},{"NAME":"Norwich","LAT":52.628869,"LONG":1.2933072},{"NAME":"Llanelwy","LAT":53.257853,"LONG":-3.4457141},{"NAME":"Abertawe","LAT":51.62011,"LONG":-3.9414177},{"NAME":"City of Westminster","LAT":51.500988,"LONG":-0.12614288},{"NAME":"Canterbury","LAT":51.279677,"LONG":1.0788685},{"NAME":"Sunderland","LAT":54.902165,"LONG":-1.3838187},{"NAME":"Durham","LAT":54.777855,"LONG":-1.5826073},{"NAME":"Bangor","LAT":53.227956,"LONG":-4.1282068},{"NAME":"Peterborough","LAT":52.572509,"LONG":-0.24249764},{"NAME":"Chichester","LAT":50.836502,"LONG":-0.77901999},{"NAME":"Salford","LAT":53.480634,"LONG":-2.2950132},{"NAME":"Manchester","LAT":53.47894,"LONG":-2.245278},{"NAME":"St Albans","LAT":51.752299,"LONG":-0.33910442},{"NAME":"Ely","LAT":52.39961,"LONG":0.26250911},{"NAME":"Truro","LAT":50.26333,"LONG":-5.0510127},{"NAME":"Newcastle upon Tyne","LAT":54.978011,"LONG":-1.610189},{"NAME":"Sheffield","LAT":53.382508,"LONG":-1.4685364},{"NAME":"Leeds","LAT":53.800703,"LONG":-1.5502636},{"NAME":"Wakefield","LAT":53.683695,"LONG":-1.4981845},{"NAME":"Liverpool","LAT":53.409341,"LONG":-2.9785098},{"NAME":"Wolverhampton","LAT":52.586205,"LONG":-2.1299156},{"NAME":"Aberdeen","LAT":57.149851,"LONG":-2.0937598},{"NAME":"Bradford","LAT":53.790778,"LONG":-1.7545611},{"NAME":"Stirling","LAT":56.115462,"LONG":-3.9341623},{"NAME":"Carlisle","LAT":54.89262,"LONG":-2.9330189},{"NAME":"Bath","LAT":51.382803,"LONG":-2.3592852},{"NAME":"Portsmouth","LAT":50.79685,"LONG":-1.09117},{"NAME":"Dundee","LAT":56.458397,"LONG":-2.9736874},{"NAME":"Chelmsford","LAT":51.737039,"LONG":0.47359118},{"NAME":"Lichfield","LAT":52.683078,"LONG":-1.8273014},{"NAME":"Gloucester","LAT":51.86455,"LONG":-2.2469343},{"NAME":"Hereford","LAT":52.055979,"LONG":-2.7175498},{"NAME":"York","LAT":53.962009,"LONG":-1.0836749},{"NAME":"Derby","LAT":52.924693,"LONG":-1.4780543},{"NAME":"Plymouth","LAT":50.370015,"LONG":-4.1420683},{"NAME":"Cardiff","LAT":51.480005,"LONG":-3.1768699},{"NAME":"Kingston upon Hull","LAT":53.744587,"LONG":-0.33257589},{"NAME":"Winchester","LAT":51.061763,"LONG":-1.3110037},{"NAME":"Chester","LAT":53.190204,"LONG":-2.8916436},{"NAME":"Casnewydd","LAT":51.587894,"LONG":-2.996742},{"NAME":"Perth","LAT":56.395471,"LONG":-3.4389019},{"NAME":"Birmingham","LAT":52.479284,"LONG":-1.9029407},{"NAME":"Salisbury","LAT":51.070368,"LONG":-1.7964254}]